stop_id,stop_code,stop_name,stop_lat,stop_lon,location_type
500000,10205,"Gare SNCF",43.6845562395,4.6310717931,0
500001,10208,"Lamartine",43.681351315,4.6323592566,0
500002,10209,"Lamartine",43.6814261411,4.6325411554,0
500003,10211,"Emile Combes",43.6759051915,4.6327928422,0
500004,10212,"Emile Combes",43.6759033541,4.632879493,0
500005,10234,"Lycée Montmajour",43.6970248797,4.6418348249,0
500006,10235,"Lycée Montmajour",43.6968950999,4.6415948699,0
500007,14108,"Gabriel Péri",43.6736472025,4.625298131,0
500008,14361,"Collège Morel",43.683933867,4.613265739,0
500009,14362,"Collège Van Gogh",43.679128373,4.6363669984,0
500010,14555,"Gabriel Péri",43.673560437,4.6252551611,0
500011,12308,"Les Razeteurs",43.4530148743,4.4280962237,0
500012,12309,"Les Razeteurs",43.4530915266,4.4279100648,0
500013,12310,"La Brise",43.4541091294,4.4334371586,0
500014,12312,"Pont Blanc",43.45704445,4.4267146694,0
500015,12313,"Pont Blanc",43.4568735928,4.4266590688,0
500016,12314,"Le Boumian",43.4679847175,4.4161609218,0
500017,12315,"Le Boumian",43.4677301679,4.4161910195,0
500018,12316,"Maguelonne",43.4816337776,4.405116962,0
500019,12317,"Maguelonne",43.4812888715,4.4047603486,0
500020,12318,"Pont de Gau",43.4898392239,4.4031978571,0
500021,12319,"Pont de Gau",43.4893683252,4.4036107129,0
500022,12320,"Taxil",43.5039874121,4.4009762259,0
500023,12321,"Taxil",43.5036249255,4.4008326902,0
500024,12323,"Auberge Jeunesse",43.5247636454,4.4011786157,0
500025,12324,"Auberge Jeunesse",43.5246560705,4.4011623771,0
500026,12325,"Pioch Badet",43.5223908947,4.4020813697,0
500027,12328,"Sénébier",43.5458844718,4.3662440566,0
500028,13740,"Les Massoucles",43.4559156578,4.4287721673,0
500029,13741,"Les Massoucles",43.4559383642,4.4289920456,0
500030,14111,"Cabane de Cambon",43.5205478478,4.3751066152,0
500031,14113,"Mas du Tadorne",43.4696396786,4.4140778701,0
500032,14114,"Mas du Tadorne",43.4697165109,4.4142897294,0
500033,14357,"Groupe Scolaire",43.4538267311,4.4322976771,0
500034,14554,"Mas Astouin",43.5303988427,4.3675989471,0
500035,12326,"Château d'Avignon",43.5556934368,4.413668925,0
500036,12327,"Château d'Avignon",43.5556170591,4.413023314,0
500037,10358,"Les Passerons",43.6663831229,4.5908261525,0
500038,10359,"Les Passerons",43.6662943074,4.5907730956,0
500039,10295,"L'Oustalet",43.6214459581,4.505729748,0
500040,10296,"L'Oustalet",43.6216388495,4.5055266679,0
500041,10297,"Pont de Rousty / Musée",43.6270444375,4.5299189005,0
500042,10298,"Pont de Rousty / Musée",43.6268427158,4.5292798657,0
500043,10362,"Bastières",43.6499221572,4.5750682441,0
500044,10363,"Bastières",43.6498538629,4.5748921987,0
500045,14118,"Mas de la Butte",43.6378111694,4.5547138221,0
500046,14119,"Mas de la Butte",43.6377833013,4.5554153402,0
500047,10289,"Paty de la Trinité",43.5828013034,4.4649558826,0
500048,10290,"Paty de la Trinité",43.5830772952,4.4651516889,0
500049,10291,"Albaron L'Agachon",43.6105155392,4.4775339788,0
500050,14009,"Mas de Broglie",43.6158850597,4.4834589797,0
500051,14010,"Mas de Broglie",43.613944554,4.4807137728,0
500052,14011,"Mas de Ventabren",43.5735033207,4.4214762141,0
500053,14012,"Mas de Ventabren",43.5750510492,4.4257751536,0
500054,14622,"Les Bruns",43.5782965425,4.4539790524,0
500055,14623,"Les Bruns",43.5784518611,4.4537954327,0
500056,15086,"Mas D'Eymini",43.5800719173,4.4358991753,0
500057,15087,"Mas D'Eymini",43.5798649167,4.4357941759,0
500058,AEGAGE,"Ecole de Gageron",43.6108852531,4.6058924959,0
500059,AMBEYN,"Beynes",43.6176001065,4.5922273295,0
500060,APTML,"Petit Montlong",43.6282316051,4.6152448295,0
500061,APTML2,"Petit Montlong",43.628188328,4.6151115773,0
500062,ASBDS,"Bar des Sports",43.4143227267,4.7357281153,0
500067,A2GAR,"Entre les 2 gares",43.691494397,4.6336420193,0
500068,A2GAR2,"Entre les 2 gares",43.6915027858,4.6335114598,0
500683,A33,"Croisement RD33-83",43.6687069237,4.7391447453,0
500070,A9COL1,"9 Collines",43.6901130396,4.6490102544,0
500071,AACC,"Aire d'Accueil",43.6636567663,4.6317835608,0
500072,AACC2,"Aire d'Accueil",43.6632808776,4.6318056001,0
500073,AAGEN,"La Genouillade",43.6731693395,4.644792671,0
500074,AAGEN2,"La Genouillade",43.6731349846,4.6447169487,0
500684,AAGON,"Mas d'Agon",43.5816542755,4.5424280466,0
500076,AAMPH,"Amphithéâtre",43.6793207845,4.629890913,0
500685,AANIB,"Mas Anibert",43.6416788078,4.7086827778,0
500078,AANTO,"Antonelle",43.6772456419,4.6245326494,0
500079,AANTO2,"Antonelle",43.6770655136,4.6244929025,0
500080,AARC,"Arcades",43.6631937996,4.6489450594,0
500081,AARC2,"Arcades",43.6631699988,4.6492173735,0
500082,AARML,"Armellière",43.5682517492,4.6682675572,0
500083,AARML2,"Armellière",43.5685015044,4.6679438616,0
500084,AARV,"Avenue des Arches",43.663871101,4.6395810684,0
500085,AARV2,"Avenue des Arches",43.6640045349,4.6396491618,0
500086,AAURI,"Auriol",43.677170687,4.6410023016,0
500087,AAURI2,"Auriol",43.6771606488,4.6410514544,0
500088,AAVER,"Avergues",43.6723916003,4.5914956083,0
500089,AAVER2,"Avergues",43.672355261,4.5916753509,0
500090,ABAL,"Balot",43.6633348635,4.7005492239,0
500091,ABALR,"Balarin",43.6481918681,4.6951365217,0
500092,ABALR2,"Balarin",43.6483187247,4.69509223,0
500093,ABARC,"Barcarin",43.41981086,4.7332335962,0
500094,ABARC2,"Barcarin",43.4199318626,4.733149234,0
500095,ABARR,"Barriol",43.662918861,4.6181427704,0
500096,ABARR2,"Barriol",43.6629615211,4.6181452503,0
500686,ABBAR,"Bac de Barcarin Salin de Giraud",43.415994066,4.7376381148,0
500687,ABBAR2,"Bac de Barcarin Salin de Giraud",43.4158481529,4.737730668,0
500099,ASBDS2,"Bar des Sports",43.4142360294,4.735432343,0
500100,ABEA,"Mas Beaulieu",43.5781834727,4.6606249989,0
500101,ABEA2,"Mas Beaulieu",43.5784178814,4.6605958823,0
500102,ABEAU,"Beauregard",43.5990572103,4.7582887899,0
500688,ABEAU2,"Beauregard",43.59951473,4.7578851768,0
500104,ABEL,"Bellombre",43.6429443493,4.72870681,0
500105,ABEL2,"Bellombre",43.6431371586,4.7287814473,0
500106,ABELL,"Mas Bellan",43.5858336718,4.7336039298,0
500108,10225,"Benoît",43.6796331882,4.6198404439,0
500109,10226,"Benoît",43.679651568,4.6193951392,0
500110,ABENO,"Benoit",43.6796285328,4.6198480013,0
500111,ABENO2,"Benoit",43.6796971245,4.619793443,0
500112,ABIEN,"La Bienheureuse",43.6482469737,4.7038367062,0
500113,ABIEN2,"La Bienheureuse",43.6481840341,4.7038364175,0
500114,ABIGO,"Bigot",43.6695681029,4.629974276,0
500115,ABIGO2,"Bigot",43.6698536533,4.6297596749,0
500690,ABLAI,"Bel Air - Simon Bon",43.6843907542,4.7322093645,0
500117,ABOIS,"Domaine de Boisviel",43.5041662289,4.7530475963,0
500118,ABOY1,"Boysset",43.6815874125,4.6030057793,0
500119,ABRIS,"Brissy",43.6806261401,4.6341165946,0
500120,ABRIS2,"Brissy",43.680263868,4.6342382954,0
500121,ABROS,"Brossolette",43.6812923334,4.6191432998,0
500122,ABROS2,"Brossolette",43.6813194645,4.6191893006,0
500123,ABSP,"Boisviel St Pierre",43.5103967458,4.7491521447,0
500124,ABSP2,"Boisviel St Pierre",43.5102775977,4.7491023364,0
500125,ABSTT2,"Les Bastidettes",43.5772225747,4.7536041399,0
500691,ABSTT3,"Les Bastidettes",43.5785385807,4.7524561793,0
500127,ACAB,"Les Cabanettes",43.6656911286,4.4660466785,0
500128,ACABL,"Cabane de la Lune",43.663057126,4.6874936903,0
500129,ACAIS,"Lou Cassaire",43.5309031153,4.7346134039,0
500692,ACAIS2,"Lou Cassaire",43.5308993414,4.7344796213,0
500131,ACAMG,"Camargue",43.6805645424,4.6208751359,0
500132,ACAMG2,"Camargue",43.6803462499,4.6207262305,0
500135,ACAVA,"Cavalerie",43.6810075275,4.6312906904,0
500136,ACAYS,"Bois de Cays",43.6447775114,4.7000112371,0
500137,ACAYS2,"Bois de Cays",43.6446705975,4.7001716558,0
500138,ACAZV,"Cazeneuve",43.6783292201,4.5928159539,0
500139,ACAZV2,"Cazeneuve",43.6783266409,4.5929397479,0
500140,ACCAU,"CC l' Aurélienne",43.6670583562,4.6355305358,0
500141,ACCAU2,"CC l'Aurélienne",43.6669003966,4.6353468776,0
500142,ACESM,"COLLEGE MISTRAL",43.6839107616,4.6303953007,0
500143,ACESM2,"COLLEGE MISTRAL",43.6828201778,4.631416274,0
500144,ACFA,"CFA",43.6786581999,4.6026307639,0
500145,ACFA2,"CFA",43.6786017321,4.602589803,0
500146,ACH,"Champ de Tir",43.6613900269,4.6602711429,0
500147,ACHAM,"Chamone",43.4336040639,4.7180051528,0
500148,ACHAM2,"Chamone",43.4336341581,4.7177619721,0
500153,ACHT,"Chateaubriand",43.6825361666,4.6381260321,0
500154,ACHT2,"Chateaubriand",43.6825436877,4.638195259,0
500155,ACIG,"Cigalon",43.6788103408,4.5999242278,0
500156,ACIG2,"Cigalon",43.6787292685,4.5999310778,0
500157,ACIL,"Ilon",43.6800758791,4.7501100118,0
500158,10217,"Clemenceau",43.6750254613,4.6254478925,0
500159,10218,"Clemenceau",43.674964489,4.6257799498,0
500160,ACLEM,"Clémenceau",43.6750979654,4.6258464768,0
500161,ACLEM2,"Clémenceau",43.6749922495,4.6258492034,0
500162,ACLVG,"Collège Van Gogh",43.6791868934,4.6364165946,0
500163,ACLVG2,"Collège Van Gogh",43.6790641115,4.6363760232,0
500164,ACMTR,"Château Mitre",43.6539536076,4.6696717089,0
500165,ACMTR2,"Château Mitre",43.6539091189,4.670066973,0
500166,ACNOI,"Chemin Noir",43.6863156685,4.6419611584,0
500167,ACNOI2,"Chemin Noir",43.6863143612,4.6419169606,0
500168,ACOMP,"Mas Compagnon",43.6633454419,4.7396374288,0
500169,ACOMP2,"Mas Compagnon",43.6633690978,4.7397870696,0
500170,ACOP,"Copernic",43.6997643671,4.6339952975,0
500171,ACOP2,"Copernic",43.6995969354,4.634045876,0
500172,ACOTY,"Coty",43.6926799448,4.6372054856,0
500173,ACOTY2,"Coty",43.6926479673,4.6370175273,0
500174,10214,"Croisière",43.6758594231,4.6328839193,0
500175,10215,"Croisière",43.6759875692,4.6327775741,0
500176,ACROI,"Croisière",43.6762062456,4.6329606011,0
500177,ACROI2,"Croisière",43.6763145852,4.6329401836,0
500178,ACRXC,"Croix de Cazeneuve",43.670049518,4.5918567449,0
500179,ACRXC2,"Croix de Cazeneuve",43.6700836519,4.5919448089,0
500182,AD83B,"Corse",43.6556642778,4.7614838622,0
500693,AD83B2,"Corse",43.6556746477,4.7614223755,0
500184,ADOL,"Dolet",43.6708488306,4.6441839011,0
500185,ADOL2,"Dolet",43.6708044132,4.6440001528,0
500186,ADRAG,"Dragées",43.6818599313,4.6157292032,0
500187,ADRAG2,"Dragées",43.681905115,4.615718618,0
500188,ADUNA,"Dunant",43.6827077649,4.6217950136,0
500189,ADUNA2,"Dunant",43.6827042685,4.6217476341,0
500190,AEBO,"F. Eboué",43.6832797302,4.6402136971,0
500191,AEBO2,"F. Eboué",43.6832843831,4.6401534794,0
500694,AECLP,"Ecole Louis Pergaud",43.6468002448,4.722780448,0
500193,AECMO,"Ecole de Moules",43.6560452455,4.7406242823,0
500695,AECMO2,"Ecole de Moules",43.6560400426,4.740605485,0
500195,AECO,"E. Combes",43.6797329887,4.6339892439,0
500196,AECO2,"E. Combes",43.6794621246,4.6339349697,0
500198,AEDS,"Edison",43.685152692,4.6381897922,0
500199,AEDS2,"Edison",43.6851516396,4.6382393149,0
500200,AEG,"Ecole de Gimeaux",43.664666516,4.5753455425,0
500201,AEG1,"Ecole Gimeaux",43.6646842648,4.5754112683,0
500202,AEGIR,"E. Giraud",43.677874741,4.6230060783,0
500203,AEMTH,"Mas Thibert Centre - école",43.5580556497,4.728325596,0
500204,AERIK,"Erikson",43.6841328726,4.6120330381,0
500205,AEYGL,"Eyglument",43.6804365013,4.6155352635,0
500696,AEYGL2,"Eyglument",43.6803805915,4.615521414,0
500207,AFANT,"Fanton",43.6784923969,4.6242566487,0
500208,AFAR,"Faraman",43.4090656125,4.7009769382,0
500209,AFAUV,"Fauvettes",43.66606205,4.6142240901,0
500210,AFAUV2,"Fauvettes",43.6661793034,4.6139934166,0
500211,AFLAM,"Flamants",43.6659015318,4.6175242394,0
500212,AFLAM2,"Flamants",43.6660080804,4.6173752093,0
500213,AFOCH,"Foch",43.6710592588,4.6323810083,0
500214,AFOCH2,"Foch",43.6711504162,4.6323227354,0
500215,AFOR,"La Forêt",43.5194428024,4.74333184,0
500697,AFOR2,"La Forêt",43.5192687732,4.7431723853,0
500217,AFOUR,"Fournier",43.6704917149,4.6301492211,0
500218,AFOUR2,"Fournier",43.6705726399,4.6300433044,0
500219,AGABE,"Gabelle",43.6773019165,4.6162145798,0
500220,AGAG,"Gageron",43.6092376791,4.6098998465,0
500221,AGAG2,"Gageron",43.6092603571,4.6096764578,0
500225,AGALL2,"Galliéni",43.6799192225,4.6122320103,0
500698,AGALL,"Galliéni",43.6799009769,4.6122444468,0
500226,AGAN,"Ganteaume",43.663890405,4.7119380816,0
500227,AGCH,"Mas de Chanoines",43.6183881395,4.7346255625,0
500228,AGDRH,"Grand Rhône",43.7091346782,4.6366871472,0
500229,AGDRH2,"Grand Rhône",43.7091853982,4.6366806708,0
500230,AGIME,"Gimeaux",43.6736341655,4.6071768272,0
500231,AGIME2,"Gimeaux",43.6736446844,4.6065678792,0
500232,AGOND,"Gondran",43.6874448805,4.6175609745,0
500233,AGOND2,"Gondran",43.6873606002,4.6175599274,0
500747,AGOU,"Goudègues",43.6845237382,4.7368137861,0
500234,AGREN,"Grenier",43.6768759016,4.6210689144,0
500699,AGRIL,"Les Grilles",43.6796568658,4.4916449017,0
500700,AGRIL2,"Les Gilles",43.6796791915,4.4915396604,0
500237,AGSNC,"Gare SNCF",43.6842930628,4.631185117,0
500238,AHAR,"Haras d'Anibert",43.6338400615,4.710364236,0
500239,AHAR2,"Haras d'Anibert",43.6339379924,4.7102553361,0
500240,AHER,"Hermite",43.6688161032,4.6448395309,0
500241,AHER2,"Hermite",43.6687085535,4.6448227919,0
500242,AHERI,"Héritier",43.6884138577,4.6421381349,0
500243,AHERI2,"Héritier",43.6885075385,4.6419087966,0
500244,AHERR,"Herriot",43.6827722826,4.6180951051,0
500245,AHERR2,"Herriot",43.6827993327,4.6181449754,0
500246,AHOC,"Hoch",43.6736374845,4.6396462532,0
500247,AHOC2,"Hoch",43.673676109,4.6397856379,0
500701,AHOCA,"Hotel de Camargue Salin",43.4101040724,4.7271678528,0
500702,AHOCA2,"Hotel de Camargue Salin",43.4100749396,4.7272652952,0
500250,AHONG,"Hongrie",43.696167807,4.6335529573,0
500251,AHONG2,"Hongrie",43.6960938453,4.6336483528,0
500252,AHOPI,"Hôpital",43.6577177199,4.6330440795,0
500253,AHOST,"Mas de l'Hoste",43.6062586306,4.6737898752,0
500254,AHUG,"Victor Hugo",43.6749193766,4.6340137478,0
500255,AHUG2,"Victor Hugo",43.6750242555,4.6340504928,0
500256,AICAR,"Mas d'Icard",43.5487960753,4.7298651422,0
500257,AICAR2,"Mas d'Icard",43.5496499958,4.7302841256,0
500258,AISAB,"Ile des Sables",43.6861059112,4.6162915213,0
500703,AJARC,"Jeanne d'Arc",43.6737060052,4.6440834436,0
500704,AJARC2,"Jeanne d'Arc",43.6737473132,4.6441493815,0
500261,AJARR1,"Les Jarres",43.7055338943,4.6404109066,0
500262,AJARR2,"Les Jarres",43.7054395102,4.6402505972,0
500263,AJBOU,"Jean Bouin",43.6951062544,4.6352700682,0
500264,AJBOU2,"Jean Bouin",43.6951733512,4.6350744775,0
500265,AJERE,"Jerez",43.6657159732,4.6337972274,0
500266,AJERE2,"Jerez",43.6658090417,4.633701878,0
500705,AJOF,"Joffre",43.687399933,4.638652231,0
500268,AJOU,"Jou",43.6949276039,4.6404518348,0
500269,AJOU2,"Jou",43.6949907938,4.6402289819,0
500270,AJOUH,"Jouhaux",43.6709772185,4.6350295543,0
500271,AJOUH2,"Jouhaux",43.6711317943,4.6349490642,0
500272,AKOEN,"Koenig",43.6850571245,4.6098240145,0
500273,ALACR,"La Crau",43.6614656076,4.6524948928,0
500274,ALACR2,"La Crau",43.6618637788,4.6515364068,0
500275,ALAEN,"Laennec",43.6909503592,4.6378784939,0
500276,ALAEN2,"Laennec",43.6911339978,4.6377000151,0
500277,ALAGE,"Laget",43.6857183121,4.6203907233,0
500278,ALAGE2,"Laget",43.6857108285,4.6203191735,0
500279,ALAMA,"Lamartine",43.6813468508,4.6327819006,0
500280,ALAMA2,"Lamartine",43.681287617,4.6326068246,0
500749,ALAMA3,"Lamartine",43.6822992981,4.6321271404,0
500281,ALAMO,"Lamour",43.6938327333,4.6397670312,0
500282,ALAMO2,"Lamour",43.693903631,4.6394987933,0
500283,ALANG,"Langlois",43.6703314175,4.621142884,0
500284,ALANG2,"Langlois",43.6703884332,4.6214238973,0
500285,ALAPL,"CC La Plaine de Montmajour",43.706317171,4.6423220849,0
500286,ALARO,"La Roquette",43.6743666222,4.6223691477,0
500287,ALATT,"De Lattre",43.6856559678,4.6369337868,0
500288,ALATT2,"De Lattre",43.6857455508,4.6369497912,0
500289,ALEGA,"Legaresse",43.6509802535,4.6107979222,0
500290,ALEGA2,"Legaresse",43.650970337,4.6106814294,0
500291,ALELA,"Le Lac",43.6564377804,4.6353596615,0
500292,ALELA2,"Le Lac",43.6565440167,4.6354382515,0
500293,ALEMO,"Le Moulin",43.5630564112,4.738604066,0
500294,ALEMO2,"Le Moulin",43.5632050322,4.7385925372,0
500295,ALESS,"Lesseps",43.6685974192,4.6335578755,0
500296,ALESS2,"Lesseps",43.6687395958,4.6336379258,0
500297,ALIBE,"Libération",43.6993183282,4.6424504285,0
500298,ALIBE2,"Libération",43.699429851,4.6422806417,0
500299,ALICE,"Lices",43.6752134416,4.6302693687,0
500300,ALICE2,"Lices",43.6752868846,4.6303574968,0
500301,ALLEN,"Allende",43.6693114807,4.615243407,0
500302,ALLEN2,"Allende",43.6693535535,4.615540845,0
500303,ALSAM,"Le Sambuc",43.5243251019,4.7062288704,0
500304,ALSAM2,"Le Sambuc",43.5245456598,4.7064727887,0
500306,AMAD,"Maternelle Alphonse Daudet",43.6474525977,4.7204664679,0
500307,AMAEV,"Fourchon",43.6527515841,4.6446828187,0
500308,AMAJO,"La Major",43.6776238414,4.6317848993,0
500309,AMAM,"Mas de l'Amérique",43.4418063001,4.7240900536,0
500310,AMAM2,"Mas de l'Amérique",43.4419687827,4.724467,0
500311,AMAN,"Mas de l'Ange",43.6200757953,4.6282402088,0
500312,AMAN2,"Mas de l'Ange",43.6202201578,4.6282699834,0
500313,AMASS,"Massenet",43.6845427645,4.6410771043,0
500314,AMASS2,"Massenet",43.68454091,4.6410057801,0
500316,AMAZ,"Le Mazet",43.565058524,4.7404101431,0
500317,AMAZ2,"Le Mazet",43.565000375,4.7405483574,0
500319,AMBEY2,"Beynes",43.6176544907,4.5922604189,0
500323,AMDEN,"Mas des Dentelles",43.6573937447,4.6118167563,0
500324,AMDEN2,"Mas des Dentelles",43.657398946,4.6115692608,0
500326,AMIC,"Place des Micocouliers",43.6443181189,4.7176368702,0
500327,AMIS,"Mas Misere",43.6518214049,4.7604164914,0
500328,AMBL,"Mas Blanc",43.6625006859,4.6805489846,0
500329,AMMAG,"Moulin de Magnan",43.6622239158,4.6783273979,0
500330,AMME,"Mas Meou",43.6601290338,4.752133741,0
500331,AMMI,"Mas Millet",43.5965076239,4.6478725318,0
500332,AMMI2,"Mas Millet",43.5965430151,4.6480046443,0
500333,AMMJ1,"Montmajour",43.6980527154,4.6413380063,0
500334,AMMJ2,"Montmajour",43.6979879785,4.6414221485,0
500335,AMMOU,"Croisement Route de Fos",43.6258529792,4.7478170429,0
500336,AMMOU2,"Croisement Route de Fos",43.6258192243,4.7478690015,0
500337,MOEGL3,"Moules centre",43.6556183869,4.7405103126,0
500338,AMOF,"Montfort",43.664741331,4.6435296719,0
500339,AMOF2,"Montfort",43.6652232666,4.6442807645,0
500340,AMOIN,"Moines",43.6978554316,4.6390921301,0
500341,AMOIN2,"Moines",43.6977251358,4.6388761707,0
500342,AMOL,"Montlong",43.634650678,4.6067412853,0
500343,AMOL2,"Montlong",43.6347759076,4.6067725732,0
500344,AMONT,"Montcaldette",43.6631297988,4.6135690086,0
500345,AMONT2,"Montcaldette",43.6631773242,4.6134470411,0
500346,AMOR,"Morel",43.6849794356,4.6149121261,0
500347,AMOUL,"Le Moulin",43.6587639757,4.7624083046,0
500348,AMOUL2,"Le Moulin",43.658766194,4.7623093097,0
500349,AMPE,"Mas de Peint",43.5038890296,4.7076050535,0
500350,AMPE2,"Mas de Peint",43.5040945161,4.7077672029,0
500351,AMPED1,"Mas Pédassas",43.6344787462,4.5674478759,0
500352,AMPED2,"Mas Pédassas",43.6344698243,4.5675535307,0
500353,AMPIL2,"Mas Pilier",43.670975586,4.6047234805,0
500354,AMPUI,"Mas du puits",43.674582752,4.6107159843,0
500355,AMPUI2,"Mas du puits",43.6745185111,4.6107776907,0
500708,AMSAL,"Mairie annexe Salin de Giraud",43.4138315208,4.7297653215,0
500709,AMSAL2,"Mairie annexe Salin de Giraud",43.4137403296,4.7298231776,0
500359,AMSMI,"Mas St Michel",43.6539008111,4.6101898233,0
500360,AMSMI2,"Mas St Michel",43.6538971589,4.6100426134,0
500361,AMSP,"Mas de St-Pierre",43.6589508683,4.6174608298,0
500362,AMSPL,"Salle Polyvalente",43.6594534461,4.7407229764,0
500363,AMUSE2,"Musée Antique",43.6720017013,4.6171440689,0
500710,AOLIV,"Mas de l'Olivier",43.6521984599,4.6733446545,0
500753,APALI,"Domaine La Palissade",43.3914267564,4.7809964862,0
500366,APARM,"Parmentier",43.6746206815,4.625454107,0
500367,APASS,"Les Passerons",43.6656671015,4.5891535106,0
500368,APASS2,"Les Passerons",43.6656693909,4.5894756587,0
500369,APECH,"Péchiney",43.4048566489,4.7245937003,0
500370,APED,"Peaudure",43.4703781112,4.7065703761,0
500371,APED2,"Peaudure",43.4713290533,4.7067686952,0
500373,APERI,"Gabriel Péri",43.6732930758,4.6253009584,0
500374,APERI2,"Gabriel Péri",43.6731629735,4.6251811442,0
500375,APGAG1,"Petit Gageron",43.6133297871,4.6026258069,0
500376,APGAG2,"Petit Gageron",43.6134126867,4.6026925212,0
500377,APIMJ,"Piscine Montmajour",43.6970967467,4.6419438529,0
500378,APIMJ2,"Piscine Montmajour",43.6970341449,4.6415578862,0
500379,APIST,"Mas Piston",43.682778437,4.7194383548,0
500380,APL,"Parc de Loisirs",43.702271447,4.6340800407,0
500381,APL2,"Parc de Loisirs",43.702262673,4.6341757484,0
500382,APLAC,"Palais des Congrès",43.6698512616,4.6192337303,0
500383,APLAC2,"Palais des Congrès",43.6697658616,4.6191792135,0
500384,APLAI,"Les Plaines",43.6438995877,4.5681697449,0
500385,APLAI2,"Les Plaines",43.6439007408,4.5682773587,0
500386,APLAT,"Le Plateau",43.6584811825,4.6359443662,0
500387,APLAT2,"Le Plateau",43.6582102356,4.6358413317,0
500388,APLAU,"Porte de Laure",43.677073017,4.6304610647,0
500711,APM,"Pâtis de Moulès",43.6841351778,4.7533758142,0
500390,APMAN2,"Petit Mandon - moulès",43.6598238632,4.7616606367,0
500391,APMAND,"Petit Mandon - moulès",43.6603904098,4.7616599428,0
500392,APOME,"Pomérat",43.6689182619,4.6353352727,0
500393,APOME2,"Pomérat",43.6688400626,4.6356302018,0
500394,APOMM,"Mas de pomme",43.6448350776,4.6914400742,0
500395,APOMM2,"Mas de Pomme",43.6448282847,4.6917006064,0
500396,APORT,"Portagnel",43.6776295757,4.6335289707,0
500397,APORT2,"Portagnel",43.677746736,4.6335166525,0
500398,APREC,"Prêcheurs",43.6817018679,4.6056990409,0
500399,APREC2,"Prêcheurs",43.6815853265,4.6056820146,0
500401,APROV2,"Alyscamps",43.6730618187,4.6329323646,0
500712,APROV,"Alyscamps",43.6729854798,4.6331398984,0
500402,APSY,"Pointe de Sayard",43.6486782439,4.689625785,0
500403,APSY2,"Pointe de Sayard",43.6486478817,4.689471286,0
500404,APTAR1,"Petit d'Arbaud",43.6161354053,4.5714403478,0
500405,APTAR2,"Petit d'Arbaud",43.6161987427,4.5714211686,0
500406,APTM,"Petit Mandon - rte eyguières",43.6619452465,4.6699938355,0
500407,APVGO,"Pont Van Gogh",43.6580945371,4.6208116668,0
500408,APVGO2,"Pont Van Gogh",43.6580879026,4.6206999332,0
500409,ARAPR,"Avenue de Provence",43.6449010039,4.7231197418,0
500410,ARAV,"Ravel",43.6960850292,4.6352297372,0
500411,ARAV2,"Ravel",43.6960844506,4.6353629457,0
500714,ARCHA,"Chanoines",43.6442181425,4.7116487287,0
500415,AREAT,"Réattu",43.6787448403,4.6281595069,0
500416,AREVO,"Révolution",43.6749047182,4.6385676846,0
500417,AREVO2,"Révolution",43.6749037055,4.6385095699,0
500418,ARIB,"Ribot",43.6904596532,4.6418722991,0
500419,ARIB2,"Ribot",43.6904525492,4.6418363837,0
500420,ARIV,"Rives Altes",43.6859297758,4.7272676836,0
500715,ARN33,"RN33",43.6761377664,4.7215173316,0
500422,AROBE,"Robespierre",43.6810994359,4.6242899605,0
500423,AROBE2,"Robespierre",43.6812163293,4.6243434357,0
500716,AROD,"Rodin",43.6904464671,4.6394273547,0
500425,AROSX,"Roseaux",43.6683211376,4.6134843105,0
500426,AROSX2,"Roseaux",43.667884841,4.6129048195,0
500427,AROY,"Mas du Roy",43.6807341851,4.5087772118,0
500428,AROY2,"Mas du Roy",43.6807954447,4.5088050984,0
500429,ASABO,"Saboly",43.677279333,4.6391180524,0
500430,ASABO2,"Saboly",43.6770797242,4.6387259197,0
500431,ASAGN,"Sagne",43.6652980045,4.6362779211,0
500432,ASAGN2,"Sagne",43.6655406509,4.6362846043,0
500433,ASALA,"Saladelles",43.6817508332,4.6097960204,0
500434,ASALA2,"Saladelles",43.6818410697,4.6097810308,0
500435,ASALI,"Saliers",43.6634584704,4.4803108135,0
500436,ASALI2,"Saliers",43.6634503788,4.4803221213,0
500437,ASAUL,"Saulcy",43.6842776088,4.6196832841,0
500438,ASAUR,"Saurel",43.686973078,4.620001064,0
500439,ASAUR2,"Saurel",43.6869062012,4.6199209392,0
500440,ASAUT,"Sautet",43.6783570952,4.6391267091,0
500441,ASAUT2,"Sautet",43.6782898722,4.63869345,0
500442,ASAXY,"Saxy",43.6886461758,4.6362860839,0
500443,ASAXY2,"Saxy",43.6887900612,4.6362856896,0
500444,ASB,"Simon Bon",43.6842847677,4.7321731596,0
500445,ASEM,"Sémard",43.6838259667,4.6341835295,0
500446,ASEM2,"Sémard",43.6838416035,4.634029272,0
500447,ASER,"Serrailler",43.6845728801,4.7416416245,0
500448,ASEV,"Séverine",43.6878061497,4.6343438676,0
500449,ASEV2,"Séverine",43.6882897629,4.6343308221,0
500450,ASEVN,"Séverin",43.6787805792,4.5961821247,0
500451,ASEVN2,"Séverin",43.6787359786,4.5961648709,0
500452,ASG2,"Salin de Giraud Centre",43.4153875398,4.7333291477,0
500453,ASGC,"Salin de Giraud Camargue",43.4111044388,4.7277183043,0
500454,ASGC2,"Salin de Giraud Camargue",43.4109016741,4.7276890316,0
500455,ASGCT,"Salin de Giraud centre",43.4150478818,4.7327846057,0
500456,ASIGN,"Signoret",43.70232762,4.6414372003,0
500457,ASIGN2,"Signoret",43.7023757216,4.6412896293,0
500458,ASON,"Sonnailler",43.6733757281,4.6045982326,0
500459,ASON2,"Sonnailler",43.6734998399,4.6044684406,0
500460,ASOUC,"Mas Mon Souci",43.6661721731,4.725275368,0
500461,ASOUC2,"Mas de Mon Souci",43.6663236036,4.725391648,0
500462,ASOUL,"Souleïado",43.6931344438,4.6335856964,0
500463,ASOUL2,"Souleïado",43.6930963615,4.6333672852,0
500464,ASTAL,"Stalingrad",43.685107033,4.6339873084,0
500465,ASTAL2,"Stalingrad",43.6851830436,4.6339013077,0
500466,ASTAL3,"Stalingrad",43.6854731936,4.6337883064,0
500467,ASTAL4,"Stalingrad",43.6857132246,4.6339714533,0
500468,ASTCE,"Ste Cécile",43.615961539,4.5703351759,0
500469,ASTCE2,"Ste Cécile",43.61602185,4.5705169868,0
500470,ASTPI,"St Pierre",43.6819500736,4.6258976746,0
500471,ASTVI,"Saint Virgile",43.645884077,4.758611002,0
500717,ASTVI2,"Saint Virgile",43.6458743507,4.7585935621,0
500473,ATAPI,"La Tapie du Bouchet",43.5922231638,4.7605484136,0
500474,ATOUR,"Tour",43.6747086925,4.6201141281,0
500475,ATRNS,"Tournesol",43.6862813862,4.6110995578,0
500476,ATRU,"Truchet",43.6912818153,4.6387841375,0
500477,ATRU2,"Truchet",43.691230276,4.6386705235,0
500478,AVALL,"Vallès",43.675508914,4.6426077176,0
500479,AVALL2,"Vallès",43.6755009839,4.6425578402,0
500480,AVAUB,"Vauban",43.6752842876,4.6322304719,0
500481,AVBAU,"Vallée des Baux",43.6609463401,4.6323867327,0
500482,AVBAU2,"Vallée des Baux",43.6611236671,4.6325053418,0
500483,AVERR,"Verrerie",43.6813585592,4.6217061134,0
500484,AVERR2,"Verrerie",43.6813783569,4.6216201737,0
500718,AVERT,"Mas Vert",43.6865300459,4.5780910616,0
500719,AVERT2,"Mas vert",43.6864930157,4.5780880574,0
500487,AVIGU,"Vigueirat",43.665109573,4.6374757297,0
500488,AVIGU2,"Vigueirat",43.6650395818,4.6374899392,0
500489,AVIL,"Villeneuve",43.5737290238,4.6242243148,0
500490,AVIL2,"Villeneuve",43.573933316,4.6243430242,0
500491,AVISS,"Vissac",43.6663192397,4.6188245525,0
500492,AVISS2,"Vissac",43.665976784,4.6188604025,0
500493,AVIV,"Villevieille",43.6561500457,4.6648121031,0
500494,AVIV2,"Villevieille",43.65617606,4.6640205167,0
500495,AVBAS,"Victor Basch",43.6721304407,4.6272333646,0
500496,AVBAS2,"Victor Basch",43.6722284851,4.6272744665,0
500498,AVPR,"Vert pré",43.6435037918,4.723936618,0
500499,AVPR2,"Vert pré",43.6437841304,4.7240179968,0
500500,AVVI,"Vert village",43.6598376903,4.6554509734,0
500501,AVVI2,"Vert Village",43.6599759015,4.6552955733,0
500502,AWISB,"Wisbech",43.6741605054,4.6438540488,0
500503,AWISB2,"Wisbech",43.6740341948,4.6438737181,0
500504,AXVCO,"XVieme Corps",43.6805183388,4.609394559,0
500505,AYORK,"York",43.6695991327,4.6376242734,0
500506,AYORK2,"York",43.6695106029,4.6375587633,0
500509,AZISU1,"ZI Sud",43.663292184,4.6233034998,0
500510,BBREU,"Breuil",43.8518486711,4.6881966814,0
500511,BBREU2,"Breuil",43.8517774371,4.6882675264,0
500512,GBELP,"Lycée Paul Langevin",43.8112077023,4.6408557205,0
500513,BLEON,"Place Gilles Léontin",43.8608797974,4.6913932636,0
500514,CAPEC,"Caphan école",43.6556740517,4.7995861566,0
500515,CAPEC2,"Caphan école",43.6555927156,4.7997026318,0
500516,BCLA,"La Clastre",43.865589471,4.6886771487,0
500720,MCD83,"CD83Route Eyguières",43.6640086512,4.7123378415,0
500518,MOEGL,"Moulès Eglise",43.6557935183,4.7399634438,0
500519,MOEGL2,"Moulès Eglise",43.6558081895,4.7401126865,0
500721,PSLLE,"Lycée H. Leroy",43.3869203152,4.8028405933,0
500722,PSLLE2,"Lycée H. Leroy",43.3867061206,4.8031642216,0
500723,PSLMA,"Mairie Port St Louis",43.3872696447,4.8040760657,0
500724,PSLRO,"Collège Robespierre",43.3905434452,4.8054976202,0
500725,PSLRO2,"Collège Robespierre",43.3904749286,4.8054468962,0
500726,PSLST,"Stade le Taberner",43.3940453419,4.7979319748,0
500750,PSLST2,"Stade le Taberner",43.3939260444,4.7980378133,0
500751,PSLVA2,"Vauban",43.397824628,4.7941988054,0
500752,PSLVAU,"Vauban",43.3978056648,4.7941432782,0
500526,RAPHG,"Raphèle Eglise",43.646504195,4.710890966,0
500527,RAPHG2,"Raphèle Eglise",43.6467914925,4.7110654489,0
500528,RAPV,"Raphèle Centre",43.6446739092,4.7183761116,0
500529,RAPV2,"Raphèle Centre",43.6448378338,4.7185377389,0
500530,RDAU1,"Ecole Daudet Raphèle",43.6471018095,4.7169976184,0
500531,RDAU2,"Ecole Daudet Raphèle",43.6472186024,4.7170024897,0
500727,SGPIE1,"Plage de Piémanson",43.3478555049,4.7839509863,0
500757,SMANG,"Angelets",43.6477509422,4.8037581652,0
500533,SMBB,"Caphan Bois de Boulogne",43.6526093906,4.7885140841,0
500535,SMBP,"Bld de Provence",43.6365728061,4.8016035108,0
500536,SMBP2,"Bld de Provence",43.6364390151,4.8016046977,0
500537,SMBRS,"Mas Boussard",43.6369884452,4.798850301,0
500538,SMBRS2,"Mas Boussard",43.6373848309,4.7992140873,0
500539,SMBSJ,"Beauséjour",43.6600104396,4.7480752837,0
500540,SMBSJ2,"Beauséjour",43.6592642204,4.7407908689,0
500541,SMCAP,"Caphan Boulangerie",43.6549130506,4.7933040602,0
500542,SMCAP2,"Caphan Boulangerie",43.6549892203,4.7933158545,0
500545,SMCC,"Cuisine Centrale",43.6338979873,4.79921378,0
500546,SMCC2,"Cuisine Centrale",43.6341604759,4.7998302252,0
500549,SMDY,"Dynamite est",43.6104536107,4.785350484,0
500550,SMDYO,"Dynamite Ouest",43.6119192919,4.7810298786,0
500551,SMDYV,"Dynamite village",43.6126565813,4.7834693934,0
500555,SMECP,"Ecole Pagnol",43.6357929954,4.8027746964,0
500556,SMEE,"Entrée Ecopôle",43.627754959,4.8032615384,0
500557,SMEE2,"Entrée Ecopôle",43.6264015442,4.8019813771,0
500558,SMEGL,"Maison des Associations",43.6373232782,4.8064524026,0
500559,SMEGL2,"Maison des Associations",43.6373979709,4.8063318173,0
500560,SMFET,"Salle des Fêtes",43.6392489012,4.8104345551,0
500561,SMFET2,"Salle des Fêtes",43.639287506,4.8104176551,0
500563,SMGA,"Gare de Saint-Martin-de-Crau",43.6222500401,4.8005170756,0
500564,SMGAD,"Relais du Gardian",43.6392329678,4.7398086273,0
500565,SMGAD2,"Relais du Gardian",43.6392664241,4.7398711711,0
500566,SMHG,"La Crèche",43.6352100752,4.814906369,0
500567,SMHG2,"La Crèche",43.6353900313,4.8149018009,0
500568,SMHR,"Saunier",43.6370927661,4.7454719807,0
500569,SMHR2,"Saint Hippolyte",43.6358471297,4.7530430857,0
500755,SMHR3,"Saint Hippolyte",43.6358470426,4.7529966528,0
500570,SMIMV,"L'imprévu",43.6351815669,4.761741201,0
500571,SMIMV2,"L'Imprévu",43.6353586669,4.761512711,0
500572,SMJJA,"Jean Jaurès",43.641527388,4.8021108054,0
500573,SMJJA2,"Jean Jaurès",43.6414413553,4.8019399241,0
500576,SMLAD,"Les Lavandins",43.6395931363,4.8150897187,0
500577,SMLAD2,"Les Lavandins",43.6394502623,4.815143878,0
500578,SMLAV,"Lavoisier",43.6254503955,4.7991766667,0
500579,SMLAV2,"Lavoisier",43.6254871333,4.7992416943,0
500580,SMLEO,"Léon Blum",43.6360119594,4.8211133566,0
500581,SMLEO2,"Léon Blum",43.6358854786,4.821138805,0
500582,SMLIO,"Lion d'or",43.6411916656,4.8183228901,0
500583,SMLIO2,"Lion d'or",43.6412345804,4.8184122083,0
500585,SMMAN,"Manades",43.6331033106,4.8142794312,0
500586,SMMAN2,"Manades",43.6329284702,4.8140605949,0
500587,SMMED,"Rdp Mediterrannée",43.6370441152,4.7957100954,0
500588,SMMED2,"Rdp de la Méditerrannée",43.6369921643,4.7955724336,0
500589,SMMEN,"Pierre Mendès France Nord",43.641342945,4.8236315676,0
500590,SMMEN2,"Pierre Mendès France Nord",43.6415439471,4.8237873709,0
500744,SMMES,"Pierre Mendès France Sud",43.6398036458,4.8238949485,0
500745,SMMES2,"Pierre Mendès France Sud",43.6398506458,4.8240997576,0
500591,SMPCA,"Cabrau",43.6320620313,4.8038678159,0
500592,SMPCA2,"Cabrau",43.6325444469,4.8040565795,0
500593,SMPIS,"Piscine",43.6381931903,4.8238797147,0
500594,SMPIS2,"Piscine",43.6376137322,4.8236594497,0
500595,SMPLA,"Planton",43.6355443042,4.8178328257,0
500596,SMPLA2,"Planton",43.6356109969,4.8180616853,0
500597,SMRIE1,"Collège Charloun Rieu St Martin de Crau",43.642004474,4.8082987848,0
500598,SMRIE2,"Collège Charloun Rieu St Martin de Crau",43.6420431556,4.8084753663,0
500599,SMRIM1,"Rimandière",43.6344371766,4.8104651339,0
500600,SMRIM2,"Rimandière",43.6346403964,4.8104754889,0
500601,SMSAL,"CC du Salat",43.6403607413,4.7984509573,0
500602,SMSAL2,"CC du Salat",43.6410679496,4.7984435399,0
500603,SMSTAD,"Stade St Martin de Crau",43.6399127432,4.8036608129,0
500604,SMTRI,"Trident",43.6400178927,4.8138196262,0
500605,SMTRI2,"Trident",43.6400747953,4.813641778,0
500606,SMV,"Mairie",43.6385512609,4.8115473322,0
500607,SMV2,"Mairie",43.6383889889,4.81156506,0
500608,SMVAL,"Valboisé",43.6419823636,4.8090206695,0
500609,SMVAL2,"Valboisé",43.64184675,4.8090031861,0
500610,SPMPOS,"La Poste",43.8590378396,4.6485569955,0
500728,TALI,"Mas d'Alivon Gaveau",43.750457777,4.6643969937,0
500612,TASEV,"Avenue Séverine",43.8157314895,4.6645518734,0
500613,TASEV2,"Avenue Séverine",43.8157204747,4.6646461242,0
500614,TASNCF,"Gare de Tarascon",43.8014058869,4.6575985905,0
500615,TBOS,"Mas de Bosc",43.7518221394,4.6558081572,0
500616,TCASS,"Collège René Cassin",43.8187268177,4.6628470379,0
500617,TCECI,"Sainte Cécile",43.8066524752,4.6707969564,0
500618,TCHAB,"A. Chabaud",43.8116673793,4.6677604971,0
500619,TCHAB2,"A. Chabaud",43.811586659,4.6678549902,0
500620,TCIM,"Cimetière St-Georges",43.8097900632,4.67058412,0
500621,TCLAN,"Croix de Lansac",43.766051438,4.6689477746,0
500729,TCLAN2,"Croix de Lansac",43.7659265885,4.6676963329,0
500623,TCOND,"Porte Condamine",43.8086399144,4.6636804973,0
500624,TCOND2,"Porte Condamine",43.8085968608,4.66374859,0
500625,TDAUD,"Lycée Alphonse Daudet",43.8018625216,4.6645675148,0
500626,TDAUD2,"Lycée Alphonse Daudet",43.8019426491,4.6646577096,0
500627,TDESP,"Gustave Desplaces",43.8015336054,4.6547789967,0
500628,TDESP2,"Gustave Desplaces",43.8014757347,4.6549621143,0
500629,TFERR,"Les Ferrages",43.8066548734,4.6649288299,0
500630,TFERR2,"Les Ferrages",43.8065955122,4.6649186406,0
500631,TGAB,"St Gabriel",43.7671376972,4.6904200512,0
500632,TGAB2,"St Gabriel",43.7671969422,4.6905908019,0
500633,TGAIL2,"Château Gaillard",43.8110011537,4.6565671542,0
500634,TGAILL,"Château Gaillard",43.8110034457,4.6566176989,0
500635,TGEND,"Gambetta",43.8041510836,4.6627418593,0
500636,TGEND2,"Gambetta",43.804157343,4.6628693926,0
500730,TGMAS,"Le grand Mas",43.762992172,4.6605430405,0
500638,TGOUV,"Avenue Gouvernet",43.813245835,4.6600995689,0
500639,TGOUV2,"Avenue Gouvernet",43.8133005607,4.660063769,0
500748,TGRA,"Mas Granier",43.7807925655,4.6578662149,0
500731,TGRES,"Mas de Gresille",43.790201304,4.6630719719,0
500732,TGRES2,"Mas de Gresille",43.7902059722,4.6631163884,0
500642,THOP,"Centre Hospitalier",43.7988741602,4.6658429055,0
500643,THUG,"Victor Hugo",43.803179102,4.6586813313,0
500644,THUG2,"Victor Hugo",43.8031311162,4.6587174011,0
500645,TJARD,"Jardin des Plantes",43.8065058107,4.6577708456,0
500646,TJARD2,"Jardin des Plantes",43.8064464985,4.6577583374,0
500733,TMAIL,"Pharmacie route de Maillane",43.8065106215,4.6679303755,0
500734,TMAIL2,"Pharmacie route de Maillane",43.8064706375,4.6679077828,0
500649,TMARG,"La Margarido",43.805504337,4.6687754694,0
500650,TMBAR,"Barrachin",43.7537232628,4.6456829476,0
500651,TMLO,"Grand Mas",43.7657843101,4.6498767176,0
500735,TMOR,"Mas Morane",43.7512818701,4.6585720335,0
500736,TPAG,"Mas de Page",43.7695728846,4.6750750618,0
500737,TPAG2,"Mas de Page",43.7694561402,4.6752238398,0
500655,TPCAB,"Petite Cabanette",43.7499666639,4.6672170163,0
500738,TPITC2,"Mas Pitchounette",43.7800649289,4.6651720777,0
500739,TPITCH,"Mas Pitchounette",43.7799671737,4.6650129297,0
500658,TPLAT,"Les Platanes",43.8029084808,4.6614501538,0
500659,TPLAT2,"Les Platanes",43.8030593702,4.6615432358,0
500660,TPRIS2,"Maison d'Arrêt",43.7899480728,4.6590983895,0
500661,TRADO,"ZI du Radoubs",43.7973572934,4.6549433862,0
500662,TRADO2,"ZI du Radoubs",43.7973496333,4.6548809953,0
500740,TREN,"Mas de Renaud",43.7511570866,4.6592546913,0
500664,TROC,"Mas St Roch",43.7481093279,4.673550619,0
500665,TROUB,"Entrée ZAC du Roubian",43.7968741765,4.690333488,0
500666,TRTCL,"Clos des Vergers",43.8005013832,4.6752234523,0
500667,TRTCL2,"Clos des Vergers",43.8004836801,4.6752103084,0
500741,TRTE,"Petite route de Tarascon - Arles",43.7985397535,4.6641390818,0
500742,TRTE2,"Petite route de Tarascon - Arles",43.7985363264,4.6641940381,0
500670,TSOUS,"Souspiron",43.814255284,4.6627255906,0
500671,TSOUS2,"Souspiron",43.8142431855,4.6626606699,0
500672,TSTAD,"Le Stade La Provence",43.8108241301,4.6614777632,0
500673,TSTAD2,"Le Stade La Provence",43.8109253608,4.6613701291,0
500743,TSTREM,"Route de Saint-Rémy",43.8019840157,4.6658731484,0
500746,TSTRE2,"Route de Saint-Rémy",43.801864454,4.6657347752,0
500675,TTARA,"La Tarasque",43.8206718556,4.6698543229,0
500676,TZARO2,"ZAC du Roubian",43.7946449255,4.6919422287,0
500754,TZARO,"ZAC du Roubian",43.794640617,4.6921406964,0
500756,TZIRO,"ZI Roubian Sud",43.7918911892,4.6851809798,0
500677,SMCMG,"Mas de Gouin",43.6261315109,4.8032749551,0
500678,TMLASA,"Maison de la Santé",43.8073043414,4.663264996,0
40001,1,"Agora",43.2864653094,5.6015996272,0
40144,1B,"Agora",43.2868681922,5.6016594775,0
40383,387,"Bassin de la Gare",43.3004574121,5.5623030442,0
40384,387B,"Bassin de la Gare",43.3003339301,5.562222223,0
40556,80,"Jas de Valèze",43.3850581875,5.5662639774,0
40557,80B,"Jas de Valèze",43.3851760184,5.5662336237,0
40503,81,"Jeanne D'Arc",43.2983561937,5.5771574864,0
40504,81B,"Jeanne d'Arc",43.2981917169,5.5775422135,0
40397,411,"Joinville",43.3209982679,5.5811465068,0
40398,411B,"Joinville",43.3210105829,5.5810363424,0
40334,345,"Khamisis",43.295408014,5.5495223121,0
40335,345B,"Khamisis",43.2955258312,5.5494919715,0
40506,84,"La Bastidonne",43.2868845349,5.5164722515,0
40507,84B,"La Bastidonne",43.2870311456,5.5151631844,0
40510,87,"Gare",43.3931998916,5.594867737,0
40511,87B,"Gare",43.3935361551,5.5944551851,0
40512,88,"La Bourbonne",43.2835407501,5.5945396932,0
40500,8,"Battiers",43.402460573,5.5922982538,0
40265,296,"La Bourgade",43.2814050694,5.5217323809,0
40370,373,"La Chapelle",43.3963190948,5.6059115613,0
40515,91,"La Clé des Champs",43.2911109854,5.5821161993,0
40516,91B,"La Clé des Champs",43.291200394,5.5821335668,0
40324,339,"La Colombe",43.3641541192,5.6471985087,0
40325,339B,"La Colombe",43.3640998717,5.6472077032,0
40372,377,"La Comtesse",43.2942624672,5.5846706719,0
40373,377B,"La Comtesse",43.2943335486,5.5846993192,0
40519,95,"La Croix",43.3688555514,5.6273252345,0
40520,95B,"La Croix",43.3689075411,5.6273898618,0
40521,96,"La Curasse",43.2754534956,5.7146926894,0
40522,96B,"La Curasse",43.2755969414,5.7152796554,0
40523,98,"Mairie",43.3774084054,5.6057822074,0
40524,98B,"Mairie",43.3773934371,5.6056827123,0
40319,334,"La Dorgale",43.3365768114,5.5962712774,0
40525,99,"La Durande",43.3189981472,5.5815630332,0
40526,99B,"La Durande",43.3190632192,5.5814928093,0
40514,9,"Baumone",43.2947013248,5.594840846,0
40527,9B,"Baumone",43.2956810772,5.5951550358,0
40004,100B,"La Feutrière",43.2758115851,5.7061466647,0
40003,100,"La Feutrière",43.2756829446,5.7065206925,0
40007,102,"La Garenne",43.2756291139,5.5520339035,0
40009,103,"La Gastaude",43.3088218088,5.5451380743,0
40010,103B,"La Gastaude",43.3087917392,5.546146226,0
40011,104,"La Glacière",43.3681796542,5.6391216582,0
40012,104B,"La Glacière",43.3683802739,5.6387387074,0
40458,506,"La Gorgue",43.3308148689,5.5732256933,0
40459,506B,"La Gorgue",43.3308006108,5.5731016893,0
40330,343,"La Gratiane",43.3071427917,5.5390100005,0
40331,343B,"La Gratiane",43.3073051562,5.5395978524,0
40253,283,"La Marjolaine",43.3019674675,5.5596296677,0
40254,283B,"La Marjolaine",43.3050859486,5.5560982227,0
40013,107,"La Martisèle",43.3101362195,5.5733153558,0
40014,107B,"La Martisèle",43.3101598251,5.573427527,0
40002,10,"Beausoleil",43.2784619825,5.5178642661,0
40019,10B,"Beausoleil",43.2782711497,5.5182352486,0
40015,108,"La Muscatelle",43.2875276946,5.5233031768,0
40016,108B,"La Muscatelle",43.2881777513,5.5241271391,0
40017,109,"La Parette",43.360208338,5.6418427186,0
40018,109B,"La Parette",43.3604528406,5.6423745401,0
40659,131,"Le Castellet",43.2856602842,5.5663093748,0
40660,131B,"Le Castellet",43.2855917818,5.5661947285,0
40266,298,"La Penne",43.2817887963,5.51423283,0
40267,298B,"La Penne",43.2817862545,5.5143188527,0
40615,132,"Le Château",43.3796105265,5.5835278476,0
40262,293,"La Penne Gare",43.2843385635,5.5155926333,0
40616,133,"Le Deven",43.3772143504,5.5976456025,0
40679,133B,"Le Deven",43.3771908369,5.5981251373,0
40261,292,"La Penne Mairie",43.2828429382,5.5150789787,0
40260,291,"La Penne Poste",43.2812173293,5.5186570319,0
40021,110,"La Pignore",43.3047647947,5.5330896509,0
40022,110B,"La Pignore",43.3048106282,5.5333631145,0
40023,111,"La Place",43.3695331596,5.6328133939,0
40024,111B,"La Place",43.3695855227,5.6328657199,0
40617,137,"Le Panorama",43.3769002766,5.603854394,0
40680,137B,"Le Panorama",43.3766802569,5.603102051,0
40025,112,"La Plaine",43.3380295706,5.5743598487,0
40026,112B,"La Plaine",43.3379621837,5.5742081864,0
40027,113,"La Planque",43.2947124831,5.5742184284,0
40028,113B,"La Planque",43.2949119479,5.574463614,0
40886,13B,"Bouire",43.37488704,5.6091400012,0
40029,114,"La Pomme",43.4059231098,5.5758905743,0
40032,116,"La Queirade",43.2778308144,5.5288451795,0
40033,116B,"La Queirade",43.2780437353,5.528943178,0
40034,117,"La République",43.2970081309,5.6204226097,0
40035,117B,"La République",43.2971876588,5.6207283958,0
40336,346,"La Sabatière",43.295543355,5.557926843,0
40404,448,"La Sounce",43.3330591039,5.574559746,0
40405,448B,"La Sounce",43.3330706723,5.5744741561,0
40036,118,"La Thuilière",43.3030850768,5.5293881611,0
40037,118B,"La Thuilière",43.3031065388,5.529574061,0
40328,342,"La Thuilière Centre",43.300857521,5.5305078599,0
40329,342B,"La Thuilière Centre",43.3010513931,5.5306417833,0
40038,119,"La Tourtelle",43.2854653821,5.5542098603,0
40039,119B,"La Tourtelle",43.2856203685,5.5544401308,0
40042,120,"La Treille",43.3113692414,5.5120164137,0
40278,304,"La Treille Camoins",43.3073744466,5.5084211607,0
40279,304B,"La Treille Camoins",43.3073120425,5.5080975345,0
40280,305,"La Treille Campagne",43.3038601737,5.5059119252,0
40281,305B,"La Treille Campagne",43.3042983048,5.5059976933,0
40175,220,"La Treille Pluvence",43.3080999095,5.5097419883,0
40176,220B,"La Treille Pluvence",43.3079829137,5.5094399669,0
40317,332,"La Treille Thermal",43.3055185678,5.5063975746,0
40318,332B,"La Treille Thermal",43.3058357101,5.506316581,0
40838,153B,"Les Bénézits",43.4017697388,5.5871768474,0
40264,295,"La Vallée",43.2842791755,5.5218549359,0
40257,287,"La Vassale",43.3005966682,5.570844069,0
40258,287B,"La Vassale",43.3006336892,5.5708092152,0
40681,155,"Les Boyers",43.3968820707,5.6208189817,0
40395,410,"Les Esparêts",43.3417077148,5.5794471566,0
40396,410B,"Les Esparêts",43.3422911372,5.5788886722,0
40047,126,"L'Aumone",43.2871124567,5.5300261498,0
40048,126B,"L'Aumone",43.2877597373,5.5282155996,0
40421,462,"L'Aumone Vieille",43.2851976096,5.5233338429,0
40422,462B,"L'Aumone Vieille",43.2853304615,5.523402768,0
40049,129,"Le Cannet",43.3326113102,5.5926824088,0
40568,132B,"Le Château",43.3799721198,5.5828701531,0
40439,474,"Le Dirigeable",43.2827574156,5.6070143104,0
40440,474B,"Le Dirigeable",43.2827526008,5.6104238679,0
40055,135,"Le Maltrait",43.3748462436,5.6125529846,0
40056,135B,"Le Maltrait",43.3747807739,5.6126355499,0
40057,136,"Le Mouton",43.2822295679,5.5090504695,0
40058,136B,"Le Mouton",43.2820245365,5.5102084997,0
40059,138,"Le Plan",43.3826176547,5.603058227,0
40060,138B,"Le Plan",43.3825862198,5.60290846,0
40061,140,"Le Puits",43.2714163959,5.6841773745,0
40062,140B,"Le Puits",43.2712733816,5.6827043956,0
40301,317,"Bonnes Nouvelles",43.2909812707,5.593250762,0
40302,317B,"Bonnes Nouvelles",43.2907650098,5.5929676381,0
40063,142,"Le Renard",43.2972614892,5.6100449225,0
40064,142B,"Le Renard",43.2973916679,5.6099045921,0
40517,93,"Le Soleil",43.2838285641,5.5145919386,0
40518,93B,"Le Soleil",43.2837641005,5.5140344433,0
40065,144,"Le Soleillet",43.3724415024,5.6073359355,0
40066,144B,"Le Soleillet",43.3729072524,5.607103601,0
40067,145,"Le Verger des Passons",43.2916365207,5.5849652755,0
40068,145B,"Le Verger des Passons",43.2917270425,5.5849457758,0
40071,148,"Les 4 Bigues",43.3465060691,5.5846601997,0
40072,148B,"Les 4 Bigues",43.34653486,5.5846002136,0
40074,150,"Les 4 Chemins",43.3130111775,5.5737115574,0
40075,151,"Les Artauds",43.3682109298,5.6480615777,0
40076,151B,"Les Artauds",43.3683277502,5.6477724431,0
40442,476,"Les Baraques",43.3215766601,5.5876092343,0
40443,476B,"Les Baraques",43.3239024181,5.5898105676,0
40051,13,"Bouire",43.3767609149,5.6087414715,0
40077,152,"Les Baumes",43.3575392667,5.6341452561,0
40078,152B,"Les Baumes",43.3574932452,5.6341795871,0
40079,153,"Les Bénézits",43.4015819277,5.5871415202,0
40102,16B,"Les Camoins",43.3013130638,5.51269127,0
40080,156,"Les Candolles",43.2778532118,5.5101625197,0
40081,157,"Les Caniers",43.2869141438,5.5945095835,0
40082,157B,"Les Caniers",43.2872511643,5.594368674,0
40409,455,"Les Cardalines",43.3051577741,5.5561022527,0
40410,455B,"Les Cardalines",43.3050579104,5.5561335924,0
40083,158,"Les Charrons",43.2970369241,5.623896527,0
40084,158B,"Les Charrons",43.2974678957,5.6236257003,0
40086,160,"Les Craux",43.2963987159,5.6159304856,0
40087,160B,"Les Craux",43.2965094477,5.6158383104,0
40088,161,"Les Creissauds",43.2786384554,5.5388845915,0
40089,161B,"Les Creissauds",43.2787806407,5.5389417574,0
40090,163,"Les Défensions",43.2964028443,5.5697458367,0
40091,163B,"Les Défensions",43.2964519431,5.5690098502,0
40437,473,"Les Alliés",43.295555175,5.6267667002,0
40438,473B,"Les Alliés",43.2954669459,5.626416886,0
40444,477,"Les Délices",43.296672214,5.5400017038,0
40445,477B,"Les Délices",43.2971744336,5.5397465502,0
40249,280,"Les Escourtines",43.2815838713,5.5047189582,0
40250,280B,"Les Escourtines",43.2814735982,5.5047990346,0
40661,191,"Lou Fenestrel",43.2802623155,5.5651809595,0
40662,191B,"Lou Fenestrel",43.2802106613,5.5651042,0
40092,164,"La Casamance",43.2786895784,5.531723886,0
40420,461,"Les Gisclans",43.3977487655,5.5907723795,0
40095,166,"Les Grands Pins",43.2757678688,5.5274504513,0
40096,166B,"Les Grands Pins",43.2756636404,5.5276292754,0
40097,167,"Les Gypières",43.3663912252,5.6190719917,0
40098,167B,"Les Gypières",43.3664731556,5.6190396998,0
40101,169,"Les Héliantes",43.3603425798,5.6637675221,0
40412,457,"Allée des Pins",43.2752426906,5.5493168348,0
40576,170,"Les Hermittes",43.377711143,5.5901401464,0
40106,171,"Les Jourdans",43.3099675341,5.576828067,0
40107,171B,"Les Jourdans",43.3100153868,5.5767322455,0
40109,174B,"Les Lignieres",43.295002148,5.5612823113,0
40108,174,"Les Lignières",43.2948308585,5.5621960977,0
40388,395,"Les Manaux",43.3437013214,5.5810386305,0
40389,395B,"Les Manaux",43.3437394593,5.5809668517,0
40110,178,"Les Micocouliers",43.2815593073,5.5067731963,0
40111,178B,"Les Micocouliers",43.2816813799,5.5069030277,0
40116,180,"Les Mûriers",43.2982169419,5.601985052,0
40117,180B,"Les Mûriers",43.298365066,5.6018457228,0
40118,183,"Les Paluds",43.2839082359,5.6028821418,0
40119,183B,"Les Paluds",43.283675261,5.6040383368,0
40120,184,"Les Passons",43.294524361,5.5804624042,0
40212,250,"Ravel Decroix",43.2905134443,5.5601190816,0
40579,250B,"Ravel Decroix",43.2905174961,5.5599838859,0
40580,370B,"Les Pégoulières",43.3817430016,5.579616454,0
40429,467,"Les Pénitents",43.2928734951,5.5719724315,0
40430,467B,"Les Pénitents",43.2926208403,5.5725983989,0
40121,185,"Les Platanes",43.3288783086,5.5983469719,0
40122,185B,"Les Platanes",43.3287477361,5.5982040302,0
40123,186,"Les Restanques",43.2809408582,5.5082284096,0
40124,186B,"Les Restanques",43.2809616315,5.5084388075,0
40911,187B,"Les Roquettes",43.3903523828,5.6045474754,0
40291,311,"Les Royantes",43.2883436139,5.5469724927,0
40292,311B,"Les Royantes",43.2884015177,5.5468403141,0
40320,337,"Les Sicardes",43.3608337657,5.6314133213,0
40321,337B,"Les Sicardes",43.3610002107,5.6315584828,0
40127,188,"Les Solans",43.3070983849,5.5735503789,0
40128,188B,"Les Solans",43.3072453637,5.5734478368,0
40581,189,"Les Termes",43.3854481345,5.5613533055,0
40582,189B,"Les Termes",43.3855457576,5.5604955854,0
40133,190,"Les Tourraques",43.3800027226,5.6734051522,0
40134,190B,"Les Tourraques",43.3800842889,5.6733852393,0
40283,306B,"Camoins Montée D'Eoures",43.3009114057,5.5107605037,0
40418,460,"Les Tuileries",43.3853920193,5.7108890155,0
40419,460B,"Les Tuileries",43.3854486407,5.7099427404,0
40386,390,"Longuelance",43.3133323912,5.5767841,0
40387,390B,"Longuelance",43.3132564012,5.5766196978,0
40413,458,"L'Oratoire",43.3866130948,5.6029900171,0
40839,223B,"Pont de Joux",43.3652808241,5.6138924387,0
40380,385,"Lot. de la Louve",43.3067408069,5.5605997329,0
40135,193,"L'Ouert",43.3450038683,5.5822830197,0
40136,193B,"L'Ouert",43.3453398534,5.5824745613,0
40137,197,"Marcel Pagnol",43.2956227232,5.5723613598,0
40138,197B,"Marcel Pagnol",43.2957524828,5.5722332396,0
40139,198,"Marcel Paul",43.3016044624,5.5741147389,0
40140,198B,"Marcel Paul",43.3016325064,5.5740793801,0
40073,15,"Camoins Thermal",43.301307055,5.5043549029,0
40085,15B,"Camoins Thermal",43.3012657115,5.5045373181,0
40508,85,"Marius Boyer",43.3960666565,5.5922679341,0
40509,85B,"Marius Boyer",43.3962230148,5.592153478,0
40431,468,"Médiathèque",43.2922740645,5.5736622733,0
40141,199,"Mistral",43.290782491,5.5947661071,0
40142,199B,"Mistral",43.290977728,5.5945555831,0
40219,256,"Montée de Lascours",43.3448726868,5.5937730079,0
40220,256B,"Montée de Lascours",43.3450587629,5.5923787408,0
40147,200,"Moulin de Redon",43.377273916,5.6819270173,0
40148,200B,"Moulin de Redon",43.3773906416,5.6813542899,0
40402,422,"Musée de la Légion",43.2935239178,5.5538860188,0
40403,422B,"Musée de la Légion",43.2936032502,5.5539397135,0
40149,201,"Napollon",43.3133826345,5.5784003637,0
40150,201B,"Napollon",43.3135521078,5.5784468888,0
40263,294,"Noël Robion",43.283520624,5.5237823587,0
40151,205,"OK Corral",43.2676289166,5.7275488623,0
40103,17,"Camp d'Aubert",43.365445859,5.6426255144,0
40114,17B,"Camp d'Aubert",43.365295029,5.6428510434,0
40154,208,"Pas de l'Avé",43.3770619068,5.6687456122,0
40155,208B,"Pas de l'Avé",43.3735615115,5.66996002,0
40156,209,"Pas de Trets",43.3844196474,5.602063429,0
40157,209B,"Pas de Trets",43.38596312,5.6009921811,0
40240,270,"Passage à Niveau",43.2985413071,5.5757888795,0
40241,270B,"Passage à Niveau",43.2988256431,5.575903434,0
40364,368,"Passage à niveau Roquevaire",43.3320433946,5.5948062264,0
40365,368B,"Passage à Niveau Roquevaire",43.3320710738,5.5947831581,0
40448,492,"Pastré",43.2963650098,5.5960311342,0
40449,492B,"Pastré",43.2963930214,5.5957002822,0
40159,210,"Pédéguien",43.3650916029,5.6321758259,0
40160,210B,"Pédéguien",43.3650497243,5.6320747967,0
40161,212,"Pic de Bertagne",43.2817760886,5.6164983953,0
40162,212B,"Pic de Bertagne",43.2819941773,5.6164246888,0
40682,249,"Santucci",43.3945253531,5.5977305516,0
40115,18,"Camp Major",43.288171047,5.5412999613,0
40131,18B,"Camp Major",43.2883000365,5.5411963679,0
40163,213,"Pin Vert",43.3014359557,5.5704480831,0
40164,213B,"Pin Vert",43.301375805,5.5706540246,0
40273,300,"Pinchon",43.2976355179,5.5971375871,0
40274,300B,"Pinchon",43.2973919597,5.5968651773,0
40167,215,"Place de l'Eglise",43.2811890836,5.5162675318,0
40168,215B,"Place de l'Eglise",43.2809323496,5.5161302221,0
40169,216,"Place des XV",43.2925163982,5.5673969707,0
40282,306,"Place du Monument",43.3011768561,5.5106028023,0
40170,218,"Plaine de Jouques",43.2815410505,5.6183067947,0
40171,218B,"Plaine de Jouques",43.2817946762,5.6182474367,0
40112,179,"Garlaban",43.2961602339,5.5733274172,0
40113,179B,"Garlaban",43.2961393189,5.5734247376,0
40184,222,"Pont de Garnière",43.3465012929,5.5979076157,0
40185,222B,"Pont de Garnière",43.346503529,5.5978338021,0
40186,223,"Pont de Joux",43.3653380547,5.6140806252,0
40187,224,"Pont de la Papeterie",43.3657356477,5.6157922561,0
40188,224B,"Pont de la Papeterie",43.3657891431,5.6158076442,0
40663,264,"Vallon des Gavots",43.281647995,5.565455847,0
40664,264B,"Vallon des Gavots",43.2816599245,5.5653580433,0
40189,225,"Pont de la Vede",43.35958729,5.6614309171,0
40190,225B,"Pont de la Vède",43.3595386,5.66155136,0
40191,226,"Pont de Lamagnon",43.2962313185,5.5820117747,0
40192,226B,"Pont de Lamagnon",43.2963953012,5.5825381782,0
40193,227,"Pont de l'Etoile",43.3268801396,5.5969151828,0
40194,227B,"Pont de l'Etoile",43.3268801396,5.5969151828,0
40293,312,"Poteries",43.2692097807,5.6471020926,0
40294,312B,"Poteries",43.2697729151,5.6466299641,0
40172,219,"Quartier de Jouques",43.2804496389,5.6210632594,0
40173,219B,"Quartier de Jouques",43.2807847858,5.6212793887,0
40132,19,"Central Parc",43.2888983006,5.5722777185,0
40143,19B,"Central Parc",43.288830174,5.5721507685,0
40427,466,"Quartier des Vaux",43.2856148508,5.5812637709,0
40428,466B,"Quartier des Vaux",43.2856021652,5.5813861568,0
40196,233,"Raymond Reynaud",43.3495638283,5.5998318411,0
40197,233B,"Raymond Reynaud",43.3496113586,5.6000440568,0
40299,316,"Résidence Le Mermoz",43.2871008982,5.5734320687,0
40300,316B,"Résidence Le Mermoz",43.2869518028,5.5739037715,0
40594,357B,"Revers du Jas",43.3780704997,5.5874725641,0
40315,331,"Robespierre",43.2870217255,5.5841131898,0
40316,331B,"Robespierre",43.2872154568,5.583951802,0
40399,412,"Centre Ville",43.3489064183,5.6028261326,0
40198,236,"Rose des Vents",43.2999702132,5.5722371056,0
40199,236B,"Rose des Vents",43.3000270394,5.5721418031,0
40200,238,"Route de Gemenos",43.2962555171,5.5776298683,0
40201,238B,"Route de Gemenos",43.296176756,5.5769605432,0
40146,20,"Centre Commercial",43.296076667,5.5915945259,0
40158,20B,"Centre Commercial",43.2964062474,5.5916994084,0
40235,266,"Salengro",43.2960421629,5.5685804582,0
40236,266B,"Salengro",43.2957679057,5.5684295763,0
40344,351,"S. Techniques",43.3971253101,5.6003824228,0
40214,251,"Sces Techniques Saint Zacharie",43.3826304503,5.7011198062,0
40333,344B,"Seignadone",43.2961321151,5.5436406209,0
40952,344,"Seignadone",43.2961205716,5.5437261619,0
40215,253,"Soeurs Gastine",43.2896670551,5.5664486686,0
40216,253B,"Soeurs Gastine",43.2897586806,5.5663922693,0
40218,254B,"Souque Nègre",43.3882652026,5.5992241326,0
40217,254,"Souque Nègre",43.388612728,5.5990342676,0
40204,242,"Saint Barthélémy",43.3754174078,5.6265676592,0
40322,338,"Saint Eloi",43.3645931005,5.6393464887,0
40323,338B,"Saint Eloi",43.3645081446,5.6394771975,0
40619,288,"Hameau du Vallon",43.2768914797,5.5546278015,0
40620,288B,"Hameau du Vallon",43.2770153327,5.5546962857,0
40206,244B,"St Esteve",43.3385215149,5.6015446364,0
40174,22,"Centre des Impôts",43.3019040975,5.5764096884,0
40195,22B,"Centre des Impôts",43.3019573179,5.5767328513,0
40684,29,"Chemin de Langlade",43.3075009094,5.5870456813,0
40205,244,"Saint Estève",43.3384886105,5.6017399115,0
40053,134,"Saint Martin",43.2826527233,5.6104551009,0
40054,134B,"St Martin",43.2827765417,5.6102282753,0
40207,246,"Saint Philippe",43.280314596,5.5387688446,0
40208,246B,"St Philippe",43.2805678367,5.5393245648,0
40221,257,"Saint Roch",43.3463379408,5.6035917614,0
40222,257B,"St Roch",43.3462066267,5.6034733686,0
40210,247B,"St Sébastien",43.2755584436,5.6981433048,0
40209,247,"Saint Sébastien",43.2753424618,5.6978598621,0
40223,258,"Saint Zacharie Centre Ville",43.3844706838,5.7067034166,0
40224,258B,"St Zacharie Centre Ville",43.3841545261,5.7067464835,0
40275,302,"Saint Zacharie ZI",43.3877493029,5.7200433489,0
40225,260,"Sainte Madeleine",43.3539451336,5.6272705521,0
40226,260B,"Sainte Madeleine",43.3540748706,5.6277340345,0
40685,29B,"Chemin de Langlade",43.3074983093,5.5871317392,0
40248,28,"Château Blanc",43.2807332755,5.5512612352,0
40259,28B,"Château Blanc",43.2812831801,5.5506150265,0
40227,261,"Tennis",43.3145765326,5.594553233,0
40228,261B,"Tennis",43.3145301531,5.5945998655,0
40229,262,"Val Pré",43.299248297,5.5693274358,0
40230,262B,"Val Pré",43.2992763395,5.5692920761,0
40231,263,"Valcros",43.341974882,5.6033308659,0
40232,263B,"Valcros",43.3418349631,5.60319967,0
40407,454,"Vallat",43.2897645794,5.5971952003,0
40408,454B,"Vallat",43.2897474043,5.5974650729,0
40233,265,"Vallon du Roy",43.276932498,5.5224442577,0
40234,265B,"Vallon du Roy",43.2768203919,5.5225857327,0
40251,281,"Vienot",43.2910788757,5.5544507009,0
40252,281B,"Vienot",43.2911169943,5.5543789703,0
40069,146,"Le Village",43.283756588,5.5448818015,0
40070,146B,"Village",43.2837356989,5.5449791112,0
40237,267,"Chemin de Bon Civet",43.2775078244,5.5529637953,0
40238,267B,"Chemin de Bon Civet",43.2772634237,5.5527162438,0
40803,326,"La Casamance",43.2765564453,5.531482082,0
40272,30,"Chemin des Barres",43.4017202286,5.5977453999,0
40531,333,"Pujol",43.3681835731,5.6492435299,0
40532,333B,"Pujol",43.3684683884,5.6499257315,0
40621,36,"Cimetière des Fenestrelles",43.2746006219,5.5590532664,0
40686,361,"Auberge Neuve",43.3936199295,5.5512435713,0
40687,361B,"Auberge Neuve",43.3929197393,5.5515002824,0
40622,36B,"Cimetière des Fenestrelles",43.2747244718,5.5591217574,0
40342,350,"Chemin des Marseillais",43.4019422798,5.5963518062,0
40688,37,"Clair Soleil",43.3005346443,5.5803711915,0
40623,370,"Les Pégoulières",43.3816330341,5.5796842163,0
40842,373C,"La Chapelle",43.396458245,5.6054754683,0
40689,37B,"Clair Soleil",43.300557501,5.580507932,0
40304,32,"Chemin du Château",43.2924867052,5.5764567181,0
40313,32B,"Chemin du Château",43.2924185834,5.5763297552,0
40672,392,"Lotissement des Solans",43.3122170281,5.5696148048,0
40690,392B,"Lotissement des Solans",43.3121661146,5.5695134084,0
40673,393,"La Bretagne",43.3122537377,5.5632988088,0
40691,393B,"La Bretagne",43.3122597661,5.563397675,0
40692,398,"Val de Riou",43.3264758241,5.6111208903,0
40693,398B,"Val de Riou",43.3264818086,5.6112197861,0
40694,399,"La Cauvine",43.3331527707,5.6160238146,0
40695,399B,"La Cauvine",43.3331277101,5.615960778,0
40094,165,"Chemin Des Gorguettes",43.4030853395,5.5864990291,0
40696,400,"Piguière",43.3359224961,5.6166257653,0
40697,400B,"Piguière",43.3359258694,5.6165150663,0
40698,402,"La Cougoulière",43.3392445535,5.6067610228,0
40699,402B,"La Cougoulière",43.3392015309,5.6066969596,0
40700,404,"Le Pigeonnier",43.4026143208,5.6088983155,0
40314,33,"Chemin St Joseph",43.2992938108,5.5618189908,0
40326,33B,"Chemin St Joseph",43.2990848668,5.5621889524,0
40701,413,"Valla de Rigon",43.3982019412,5.6155783801,0
40702,416,"Les Playes",43.3850151168,5.613257656,0
40703,417,"Plan de Redon",43.3905778916,5.617251029,0
40843,41B,"Collège Louis Aragon",43.3455438723,5.6004164023,0
40246,279,"Chemin Saint Michel",43.2917237606,5.5770046045,0
40247,279B,"Chemin St Michel",43.2915805741,5.5772796858,0
40667,425,"Chemin du Charrel",43.2774624642,5.5610847937,0
40668,425B,"Chemin du Charrel",43.277518911,5.5610018053,0
40704,428,"Chemin du Caou",43.32914716,5.6078608109,0
40705,428B,"Chemin du Caou",43.329154269,5.6079228154,0
40327,34,"Cigardonne",43.3168723341,5.5819724199,0
40340,34B,"Cigardonne",43.3167214816,5.5816066938,0
40624,434,"La Verrerie",43.3750085942,5.6075070962,0
40625,434B,"La Verrerie",43.3749431284,5.6075896674,0
40310,328B,"Cimetiere de la Penne",43.2789188663,5.5084859478,0
40309,328,"Cimetière de la Penne sur Huveaune",43.2788477656,5.5084574024,0
40358,35B,"Cimetière des Passons",43.2926505998,5.5742990992,0
40341,35,"Cimetière des Passons",43.2925585999,5.5743677795,0
40706,478,"Campagne",43.3224582516,5.5870063316,0
40674,479,"Grand Pin Vert",43.3073240039,5.5657431595,0
40707,479B,"Grand Pin Vert",43.307447853,5.5658117041,0
40255,285,"Claire Fontaine",43.2983473044,5.5365983885,0
40256,285B,"Claire Fontaine",43.2983982483,5.5366997312,0
40675,480,"Jean Aicard",43.3026562138,5.5675492095,0
40708,480B,"Jean Aicard",43.3026715856,5.5676362721,0
40709,482,"Route de Beaudinard",43.3101878721,5.5835401758,0
40710,482B,"Route de Beaudinard",43.310080135,5.5835340787,0
40711,483,"Chemin de Valcros",43.3376827322,5.6134611955,0
40712,483B,"Chemin de Valcros",43.3376756263,5.6133991811,0
40713,484,"Le Lavoir",43.3280338544,5.6134150477,0
40714,484B,"Le Lavoir",43.3280361011,5.6133412584,0
40715,486,"Les Thourons",43.3359355847,5.6037754155,0
40716,486B,"Les Thourons",43.3359587857,5.6038999497,0
40276,303,"Clinique Saint Roch",43.3012302037,5.5072688803,0
40277,303B,"Clinique St Roch",43.3011292676,5.5073371822,0
40669,498,"La Verdure",43.2888383642,5.5670914448,0
40670,498B,"La Verdure",43.2887526446,5.5669512004,0
40717,499,"Boulodrome",43.393626813,5.595323691,0
40377,381,"Mairie",43.3693865487,5.6343706978,0
40378,381B,"Mairie",43.3693652665,5.6341845439,0
40381,386,"Clos de la Louve",43.3038345314,5.5621480975,0
40382,386B,"Clos de la Louve",43.3038827393,5.5620399806,0
40533,512,"Pierre Blancard",43.2974726494,5.5631695399,0
40534,512B,"Pierre Blancard",43.2975455803,5.5631367022,0
40385,39,"Clos Ruffisque",43.277449113,5.5353350083,0
40390,39B,"Clos Ruffisque",43.2774407057,5.5356176296,0
40535,526,"L'Auberge",43.3554681398,5.6268772726,0
40536,526B,"L'Auberge",43.3556099114,5.6269470373,0
40537,527,"Les Marseillais",43.356076634,5.6319780731,0
40538,527B,"Les Marseillais",43.3560743745,5.6320518978,0
40539,528,"Les Vignes",43.3586842344,5.6378720397,0
40540,528B,"Les Vignes",43.3586146722,5.6377940758,0
40541,529,"Pierrina",43.363465199,5.6508816115,0
40542,529B,"Pierrina",43.3633888286,5.6510251252,0
40543,530,"L'Escale",43.3574907702,5.6600027427,0
40544,530B,"L'Escale",43.3574926691,5.6599412216,0
40545,531,"Les Estiennes",43.3630380363,5.658031459,0
40546,531B,"Les Estiennes",43.3631436117,5.6586909311,0
40718,536,"Le Coularet",43.1935852282,5.3643883177,0
40719,536B,"Le Coularet",43.1935852282,5.3643883177,0
40720,537,"Les Chênes",43.394209815,5.6240946222,0
40456,505,"Collège Nathalie Sarraute",43.2985470849,5.5642273006,0
40457,505B,"Collège Nathalie Sarraute",43.2984243422,5.5641218936,0
40406,45,"Collège Lakanal",43.2859339164,5.5826113277,0
40416,45B,"Collège Lakanal",43.2859166261,5.5822902802,0
40394,41,"Collège Louis Aragon",43.3453957702,5.6008516094,0
40417,46,"Collège Ubelka",43.370268562,5.64783525,0
40434,47,"Comoedia",43.2936991661,5.56724194,0
40447,49,"Coulin Carrefour",43.2739556808,5.6366553376,0
40450,49B,"Coulin Carrefour",43.2741966389,5.6364230248,0
40391,4,"Avenue de la Paix",43.2788791917,5.5516128272,0
40451,4B,"Avenue de la Paix",43.2787287699,5.5515305509,0
40453,50,"Cours Barthélémy",43.2927272046,5.5669656156,0
40460,51,"Cours Voltaire",43.2952415244,5.5682891229,0
40379,382B,"Cuges les Pins Mairie",43.2754646552,5.700279561,0
40461,52,"Cuges Libération",43.2759091954,5.7018811623,0
40462,52B,"Cuges Libération",43.2760360306,5.7018516709,0
40423,463,"Ebé",43.2878568977,5.5835572161,0
40424,463B,"Ebé",43.2876405375,5.582978682,0
40411,456,"Ecole Claire Dauphin",43.3687948487,5.6436940108,0
40349,354,"Ecole de Beaudinard",43.3153008176,5.5884483156,0
40350,354B,"Ecole de Beaudinard",43.3153868826,5.5885763613,0
40463,53,"Ecole de la Pérussonne",43.2810827297,5.5401533815,0
40464,53B,"Ecole de la Pérussonne",43.2817138068,5.5425150408,0
40452,5,"Avenue du 19 Mars",43.2890195848,5.5694407242,0
40469,5B,"Avenue du 19 Mars",43.2874946155,5.5729002931,0
40721,7,"Bastide Thouron",43.3331049729,5.6063616669,0
40465,54,"Ecole Les Passons",43.2934172674,5.5772110318,0
40466,54B,"Ecole Les Passons",43.293479743,5.5772268716,0
40467,59,"Eglise de Roquevaire",43.3496015555,5.6039256109,0
40468,59B,"Eglise de Roquevaire",43.3501253008,5.6041526456,0
40471,60,"Elzéard Rougier",43.2934547782,5.5678930249,0
40288,309,"Eoures Cigales",43.3012674687,5.5227486691,0
40289,309B,"Eoures Cigales",43.301203881,5.5236809469,0
40286,308,"Eoures Notre Dame",43.3005153003,5.5183850075,0
40287,308B,"Eoures Notre Dame",43.3004477253,5.5185413307,0
40722,7B,"Bastide Thouron",43.3332011171,5.606453393,0
40297,315,"Avenue Jean Mermoz",43.2864452577,5.5784793068,0
40298,315B,"Avenue Jean Mermoz",43.2861020683,5.5779305766,0
40295,314,"Eoures Parking",43.3017238123,5.5264680236,0
40296,314B,"Eoures Parking",43.3013327769,5.5263108402,0
40284,307,"Eoures Saint Roch",43.3003590576,5.514239162,0
40285,307B,"Eoures St Roch",43.3002742582,5.5143699095,0
40474,63,"Eoures Village",43.3012679501,5.5206061865,0
40475,63B,"Eoures Village",43.3012020727,5.5210088686,0
40476,64,"Fauge",43.2883471968,5.600635624,0
40477,64B,"Fauge",43.2886987701,5.6000154418,0
40478,65,"Favary",43.3281635173,5.573765965,0
40479,65B,"Favary",43.3282063574,5.5732386493,0
40480,66,"Font de Mai",43.3078184167,5.5528403211,0
40481,66B,"Font de Mai",43.3078180492,5.5528526154,0
40482,67,"Fontmagne",43.2772879971,5.6209315982,0
40483,67B,"Fontmagne",43.2774825325,5.6207457873,0
40484,68,"Ganteaume",43.2882447286,5.5742721568,0
40485,68B,"Ganteaume",43.2886032784,5.5737137708,0
40470,6,"Bassardelle",43.2941478915,5.5786312437,0
40486,6B,"Bassardelle",43.2941609445,5.5784965479,0
40311,329,"Gaston de Saporta",43.3813367359,5.7025113136,0
40312,329B,"Gaston de Saporta",43.3813526373,5.7022902778,0
40239,269,"Centre Ville",43.2971169175,5.6292203509,0
40268,299,"Grand Linche",43.2981523512,5.6038160325,0
40269,299B,"Grand Linche",43.2982402635,5.6038826035,0
40488,74,"Groupe Provence",43.2879495905,5.5766068633,0
40489,74B,"Groupe Provence",43.288101105,5.5766523488,0
40611,355,"Halte Routière de Peypin",43.384621961,5.576597848,0
40612,355B,"Halte Routière de Peypin",43.3849093684,5.5757138924,0
40492,76,"Hameau du Moulin de Redon",43.3805003376,5.6805616204,0
40493,76B,"Hameau du Moulin de Redon",43.3805882085,5.6806284047,0
40496,78,"Hôpital",43.2913435982,5.5636252117,0
40497,78B,"Hôpital",43.2912070949,5.5645778246,0
40498,79,"Horizons Clairs",43.2911475312,5.5803084779,0
40499,79B,"Horizons Clairs",43.2909591569,5.5808887804,0
40723,BAAAM,"Allée des Muriers",43.2757297545,5.5513749091,0
40626,BAACO1,"Les Cossettes",43.283781015,5.5488838138,0
40627,BAACO2,"Les Cossettes",43.2836676039,5.5487666799,0
40724,BAACP1,"Parking Passons",43.2924491255,5.5759128805,0
40628,BAACR,"Colonel de Roux",43.2953235863,5.5667547076,0
40995,BAAEB1,"Eglise de Beaudinard",43.3153891123,5.5885025873,0
40996,BAAEB2,"Eglise de Beaudinard",43.3119435478,5.5855608272,0
40997,BAAEP,"Eoures Park",43.3022283476,5.5297714663,0
40725,BAAFA1,"Les Faïenciers",43.2948594706,5.5699297559,0
40726,BAAFA2,"Les Faïenciers",43.2947988411,5.5698524668,0
40998,BAAG10,"Gare",43.295807423,5.566215571,0
40999,BAAG11,"Gare",43.2953690963,5.5646395556,0
40629,BAAGR1,"Gare",43.2955706713,5.5645154584,0
40630,BAAGR2,"Gare",43.2956528302,5.565074135,0
40631,BAAGR3,"Gare",43.2956160557,5.5648011948,0
40632,BAAGR4,"Gare",43.2958721051,5.5670564545,0
40633,BAAGR5,"Gare",43.2956978441,5.5653721639,0
40671,BAAGR6,"Gare",43.295655165,5.5661946901,0
40732,BAALC1,"Les 4 Chemins",43.3131452779,5.5731402647,0
40635,BAAMK1,"Martin Luther King",43.292879563,5.5627881966,0
40636,BAAMK2,"Martin Luther King",43.2928632116,5.563033512,0
41000,BAAPA1,"Saint Pierre",43.3041188874,5.5784188194,0
40637,BAAPC1,"Piscine Alain Bernard / Oasis du Charrel",43.2844304241,5.547615315,0
40638,BAAPC2,"Piscine Alain Bernard / Oasis du Charrel",43.2845105143,5.5470412328,0
40639,BAAPC3,"Eiffel",43.2849071405,5.5485159886,0
40640,BAAPC4,"Eiffel",43.2867053233,5.5485304415,0
40858,BAAPE2,"Plateau des Espillières",43.2827790302,5.5718096788,0
40677,BAARE1,"Route d'Eoures",43.2973320485,5.5687516055,0
40728,BAARE2,"Route d'Eoures",43.297273748,5.5688960745,0
41001,BAASC1,"La Source",43.3174381747,5.5965756494,0
41002,BAASC2,"La Source",43.3173379257,5.5966192214,0
40678,BAASN1,"Actipôle",43.2856315953,5.5271986393,0
41003,BAATB1,"Terrain Berlioux",43.2956121412,5.5831587541,0
41004,BAATB2,"Terrain Berlioux",43.2956802552,5.5832857322,0
40641,BBOGI2,"Les Gisclans",43.3972164709,5.5911245092,0
40647,TCALI1,"Ravel Decroix",43.2904931403,5.5598963395,0
40648,TCALI2,"Ravel Decroix",43.2904942452,5.559859468,0
40649,TCHAB1,"Château Blanc",43.2817945986,5.5500528161,0
40650,TCHAB2,"Château Blanc",43.2817246103,5.5499873518,0
40651,TCHAR2,"Le Charrel",43.279190527,5.5511256061,0
40652,TCURI1,"Marthin Luther King",43.2929693436,5.5627932435,0
40653,TCURI2,"Marthin Luther King",43.2929708182,5.5627440794,0
40654,TPISC1,"Piscine Alain Bernard / Oasis du Charrel",43.2846794127,5.5480108502,0
40655,TPISC2,"Piscine Alain Bernard / Oasis du Charrel",43.284734015,5.5479892853,0
40656,TPOLE1,"Gare",43.2957758175,5.5657705468,0
40657,TTOUR1,"La Tourtelle",43.2856375891,5.5544657164,0
40658,TTOUR2,"La Tourtelle",43.2856753398,5.5544062821,0
